[
  {
    "id": 1,
    "name": "TF 복싱짐TF 복싱짐TF 복싱짐TF 복싱짐TF 복싱짐",
    "item_nm": "복싱",
    "location": "경주",
    "address": "경상북도 경주시 원물로5번길 149 3층 TF복싱장",
    "start_tm": "10:00",
    "close_tm": "22:00",
    "lectr_weekday_val": "1111100",
    "lectr_nm": "이준희",
    "phone": "054-774-9768",
    "settl_amt": "150000",
    "course_nm": "복싱트레이닝"
  },
  {
    "id": 2,
    "name": "강성 체육관 킥복싱 무에타이",
    "item_nm": "킥복싱",
    "location": "경주",
    "address": "경상북도 경주시 원물로5번길 149 3층 TF복싱장",
    "start_tm": "10:00",
    "close_tm": "22:00",
    "lectr_weekday_val": "1111100",
    "lectr_nm": "이준희",
    "phone": "054-774-9768",
    "settl_amt": "150000",
    "course_nm": "복싱트레이닝"
  },
  {
    "id": 3,
    "name": "야구 전문 삼성라이온즈 야구교실",
    "item_nm": "야구",
    "location": "대구",
    "address": "대구 수성구 야구전설로 1 대구삼성라이온즈파크",
    "start_tm": "10:00",
    "close_tm": "22:00",
    "lectr_weekday_val": "1111111",
    "lectr_nm": "구자욱",
    "phone": "054-774-9768",
    "settl_amt": "150000",
    "course_nm": "복싱트레이닝"
  },
  {
    "id": 4,
    "name": "야구 전문 삼성라이온즈 야구교실",
    "item_nm": "야구",
    "location": "대구",
    "address": "대구 수성구 야구전설로 1 대구삼성라이온즈파크",
    "start_tm": "10:00",
    "close_tm": "22:00",
    "lectr_weekday_val": "1111111",
    "lectr_nm": "구자욱",
    "phone": "054-774-9768",
    "settl_amt": "150000",
    "course_nm": "복싱트레이닝"
  },
  {
    "id": 5,
    "name": "야구 전문 삼성라이온즈 야구교실",
    "item_nm": "야구",
    "location": "대구",
    "address": "대구 수성구 야구전설로 1 대구삼성라이온즈파크",
    "start_tm": "10:00",
    "close_tm": "22:00",
    "lectr_weekday_val": "1111111",
    "lectr_nm": "구자욱",
    "phone": "054-774-9768",
    "settl_amt": "150000",
    "course_nm": "복싱트레이닝"
  },
  {
    "id": 6,
    "name": "야구 전문 삼성라이온즈 야구교실",
    "item_nm": "야구",
    "location": "대구",
    "address": "대구 수성구 야구전설로 1 대구삼성라이온즈파크",
    "start_tm": "10:00",
    "close_tm": "22:00",
    "lectr_weekday_val": "1111111",
    "lectr_nm": "구자욱",
    "phone": "054-774-9768",
    "settl_amt": "150000",
    "course_nm": "복싱트레이닝"
  },
  {
    "id": 7,
    "name": "야구 전문 삼성라이온즈 야구교실",
    "item_nm": "야구",
    "location": "대구",
    "address": "대구 수성구 야구전설로 1 대구삼성라이온즈파크",
    "start_tm": "10:00",
    "close_tm": "22:00",
    "lectr_weekday_val": "1111111",
    "lectr_nm": "구자욱",
    "phone": "054-774-9768",
    "settl_amt": "150000",
    "course_nm": "복싱트레이닝"
  },
  {
    "id": 8,
    "name": "야구 전문 삼성라이온즈 야구교실",
    "item_nm": "야구",
    "location": "대구",
    "address": "대구 수성구 야구전설로 1 대구삼성라이온즈파크",
    "start_tm": "10:00",
    "close_tm": "22:00",
    "lectr_weekday_val": "1111111",
    "lectr_nm": "구자욱",
    "phone": "054-774-9768",
    "settl_amt": "150000",
    "course_nm": "복싱트레이닝"
  },
  {
    "id": 9,
    "name": "야구 전문 삼성라이온즈 야구교실",
    "item_nm": "야구",
    "location": "대구",
    "address": "대구 수성구 야구전설로 1 대구삼성라이온즈파크",
    "start_tm": "10:00",
    "close_tm": "22:00",
    "lectr_weekday_val": "1111111",
    "lectr_nm": "구자욱",
    "phone": "054-774-9768",
    "settl_amt": "150000",
    "course_nm": "복싱트레이닝"
  },
  {
    "id": 10,
    "name": "야구 전문 삼성라이온즈 야구교실",
    "item_nm": "야구",
    "location": "대구",
    "address": "대구 수성구 야구전설로 1 대구삼성라이온즈파크",
    "start_tm": "10:00",
    "close_tm": "22:00",
    "lectr_weekday_val": "1111111",
    "lectr_nm": "구자욱",
    "phone": "054-774-9768",
    "settl_amt": "150000",
    "course_nm": "복싱트레이닝"
  }
]
